City_ID,City,Country,Max Temp,Current Description,Lat,Lng,Hotel Name
0,Ushuaia,AR,37.06,clear sky,-54.8,-68.3,Albatross Hotel
1,Aljezur,PT,66.4,clear sky,37.3191,-8.8033,Amazigh Hostel
2,Punta Arenas,CL,41.11,few clouds,-53.15,-70.9167,Hotel Hain
4,Hirara,JP,81.46,moderate rain,24.8,125.2833,Hotel Atoll Emerald Miyakojima
5,Broome,US,76.69,clear sky,42.2506,-75.833,Chenango Valley State Park
6,Vaini,TO,75.36,broken clouds,-21.2,-175.2,Keleti Beach Resort
7,Ewa Beach,US,78.75,broken clouds,21.3156,-158.0072,Base Lodging
8,Ratnagiri,IN,82.6,overcast clouds,16.9833,73.3,Hotel Landmark
10,Byron Bay,AU,46.94,clear sky,-28.65,153.6167,Backpackers Inn
11,Mataura,NZ,46.47,overcast clouds,-46.1927,168.8643,Ellie's Villa
12,Port Hardy,CA,55.58,mist,50.6996,-127.4199,Airport Inn-Port Hardy
13,Hithadhoo,MV,83.19,overcast clouds,-0.6,73.0833,Scoop Guest House
15,Rikitea,PF,77.43,scattered clouds,-23.1203,-134.9692,People ThankYou
16,Tiksi,RU,31.73,overcast clouds,71.6872,128.8694,Arktika
17,Port Alfred,ZA,57.61,clear sky,-33.5906,26.891,The Halyards Hotel
18,Dingle,PH,76.55,broken clouds,10.9995,122.6711,SEGAYA PROPERTY
19,Luderitz,,63.84,clear sky,-26.6481,15.1594,LÜDERITZ NEST HOTEL
20,Camargo,MX,94.06,overcast clouds,27.6667,-105.1667,Hotel Santa Fe
21,Bluff,NZ,46.8,overcast clouds,-46.6,168.3333,Bluff Homestead - Guesthouse & Campervan Park
22,Paita,PE,71.55,few clouds,-5.0892,-81.1144,Hotel Náutico de Paita
23,Kruisfontein,ZA,50.88,clear sky,-34.0033,24.7314,Oyster Bay House Rental
24,Ilulissat,GL,37.42,few clouds,69.2167,-51.1,Hotel Arctic
25,Klaksvik,FO,47.32,scattered clouds,62.2266,-6.589,Airbnb rooms
28,Coquimbo,CL,60.53,clear sky,-29.9533,-71.3436,Hotel San Juan
29,Kokkola,FI,55.92,overcast clouds,63.8385,23.1307,Hotel Kokkola
31,Thompson,CA,41.16,overcast clouds,55.7435,-97.8558,Burntwood Hotel
33,Lakatoro,VU,78.15,scattered clouds,-16.0999,167.4164,Lakatoro Palm Lodge
34,Busselton,AU,56.98,overcast clouds,-33.65,115.3333,Observatory Guest House
37,Cape Town,ZA,59.92,clear sky,-33.9258,18.4232,"Radisson Blu Hotel Waterfront, Cape Town"
38,Hobart,AU,47.23,overcast clouds,-42.8794,147.3294,St Ives Hobart Accommodation Tasmania
39,Kavieng,PG,80.76,broken clouds,-2.5744,150.7967,Nusa Island Retreat
40,Kaitangata,NZ,46.11,overcast clouds,-46.2817,169.8464,Kaitangata Motor Camp
41,Magburaka,SL,78.91,light rain,8.7167,-11.95,PROF LAKOH
42,New Norfolk,AU,46.89,light rain,-42.7826,147.0587,The Shingles Riverside Cottages
43,Maningrida,AU,72.09,few clouds,-12.0667,134.2667,Dhukurrdji Lodge
44,Olafsvik,IS,47.28,light rain,64.8945,-23.7142,Hotel Olafsvik
45,Lompoc,US,88.02,clear sky,34.6391,-120.4579,"Holiday Inn Express Lompoc, an IHG Hotel"
46,Inhambane,MZ,66.18,scattered clouds,-23.865,35.3833,Oceano
48,Tuktoyaktuk,CA,33.8,mist,69.4541,-133.0374,End of The Road Ltd.
49,Georgetown,MY,82.33,few clouds,5.4112,100.3354,Cititel Penang
50,Alta Floresta,BR,96.62,scattered clouds,-9.8756,-56.0861,Floresta Amazonica Hotel
51,Arlit,NE,97.68,broken clouds,18.7369,7.3853,Case de Passage De la Prefecture
52,Kousseri,CM,96.58,clear sky,12.0769,15.0306,Le Pilotis
53,Playas,EC,75.6,few clouds,-2.6333,-80.3833,Hostal Promenade
54,Butaritari,KI,81.0,broken clouds,3.0707,172.7902,Isles Sunset Lodge
55,Comodoro Rivadavia,AR,48.06,clear sky,-45.8667,-67.5,Austral Hotel
56,Torbay,CA,43.75,fog,47.6666,-52.7314,Gallows Cove
57,Namibe,AO,72.63,clear sky,-15.1961,12.1522,Hotel Chik Chik Namibe
58,Pacific Grove,US,74.25,clear sky,36.6177,-121.9166,Lovers Point Inn
59,Ahuimanu,US,78.51,broken clouds,21.4447,-157.8378,Paradise Bay Resort
60,Dunedin,NZ,46.8,overcast clouds,-45.8742,170.5036,Scenic Hotel Southern Cross
61,Pisco,PE,65.01,mist,-13.7,-76.2167,Hotel San Isidro Oficial
62,Jamestown,US,74.52,clear sky,42.097,-79.2353,Hampton Inn & Suites Jamestown
63,Bondoukou,CI,81.3,few clouds,8.0333,-2.8,Prestige Hotel
65,Artvin,TR,66.99,overcast clouds,41.1667,41.8333,Koru Butik Otel
66,Nikolskoye,RU,62.49,overcast clouds,59.7035,30.7861,Tourist House - Sablino
67,Fairbanks,US,70.48,scattered clouds,64.8378,-147.7164,Westmark Fairbanks Hotel & Conference Center
69,Necochea,AR,47.39,overcast clouds,-38.5473,-58.7368,dyd -mar Hotel
70,Harer,ET,59.5,few clouds,9.3094,42.1258,Amir Cultural Harari Guesthouse
71,Phuket,TH,86.09,few clouds,8.0,98.25,The Surin
72,Kieta,PG,76.71,clear sky,-6.2167,155.6333,Uruna Bay Retreat
73,Mar Del Plata,AR,53.1,scattered clouds,-38.0023,-57.5575,Gran Hotel Mar del Plata
74,Ridgetown,CA,57.06,overcast clouds,42.4334,-81.8998,JOJO's Paradise Bed & Breakfast/SPA/Bakery Café
75,Hilo,US,87.28,few clouds,19.7297,-155.09,Hilo Hawaiian Hotel
76,San Patricio,US,94.15,clear sky,28.017,-97.5169,"Motel 6 Sinton, TX"
77,Tam Ky,VN,77.83,overcast clouds,15.5667,108.4833,Nhà Nghỉ Phương Hòa
78,Half Moon Bay,US,81.88,mist,37.4636,-122.4286,"The Ritz-Carlton, Half Moon Bay"
79,Fez,MA,75.45,broken clouds,34.0372,-4.9998,Hotel Mounia Fès
81,Faya,SA,78.91,clear sky,18.3851,42.4509,املاك خالد الشعشوع
82,Takaka,NZ,49.55,clear sky,-40.85,172.8,Golden Bay Motels
83,Longyearbyen,SJ,48.04,clear sky,78.2186,15.6401,"Radisson Blu Polar Hotel, Spitsbergen"
84,Roma,US,72.95,few clouds,43.2128,-75.4557,Wingate By Wyndham Rome
85,Berlevag,NO,58.8,clear sky,70.8578,29.0864,Kvitbrakka
86,Zhangye,CN,63.09,overcast clouds,38.9342,100.4517,Zhangye Lvzhou Holiday Inn
87,Atuona,PF,78.78,clear sky,-9.8,-139.0333,Villa Enata
88,Chifeng,CN,75.24,overcast clouds,42.2683,118.9636,Junyu Tiancheng Hotel
89,Lebu,CL,53.94,overcast clouds,-37.6167,-73.65,Hostal Las Lilas
90,Tangkak,MY,76.87,overcast clouds,2.2673,102.5453,Lakeside Village Homestay 水乡民宿
91,Hakkari,TR,62.38,scattered clouds,37.5833,44.1667,Koprucek Koyu Muhtarligi
92,Hofn,IS,50.59,overcast clouds,64.2539,-15.2082,Hótel Höfn
93,Portland,US,71.92,broken clouds,45.5234,-122.6762,Embassy Suites by Hilton Portland Downtown
94,Saint-Pierre,RE,69.48,few clouds,-21.3393,55.4781,Alize Plage
95,Sain Alto,MX,83.26,clear sky,23.5833,-103.25,Hotel Barraza
96,Saint Anthony,US,77.25,clear sky,45.0205,-93.218,Holiday Inn Express Roseville-St. Paul
97,Sao Filipe,CV,76.93,broken clouds,14.8961,-24.4956,Hotel Xaguate
99,Wanaka,NZ,48.11,overcast clouds,-44.7,169.15,Wanaka Homestead Lodge and Cottages
100,Puerto Ayora,EC,76.96,broken clouds,-0.7393,-90.3518,Finch Bay Galapagos Hotel
101,Faanui,PF,78.76,light rain,-16.4833,-151.75,Bora-Bora Pearl Beach Resort & Spa
102,East London,ZA,54.54,clear sky,-33.0153,27.9116,Tu Casa
103,Hasaki,JP,63.28,overcast clouds,35.7333,140.8333,Inubosaki Kanko Hotel
104,Saint-Philippe,RE,69.39,clear sky,-21.3585,55.7679,"Chambres d'hôte ""La Trinité"""
105,Malpe,IN,81.7,overcast clouds,13.35,74.7167,Hotel Sri Krishna Residency
106,Ilebo,CD,76.15,light rain,-4.3167,20.5833,Hôtel BUMAK
107,Khatanga,RU,47.91,overcast clouds,71.9667,102.5,"""Khatanga"""
108,Esperance,AU,57.47,overcast clouds,-33.8667,121.9,Hospitality Esperance
109,Seoul,KR,65.77,broken clouds,37.5683,126.9778,롯데호텔 서울
110,Port Elizabeth,ZA,53.1,clear sky,-33.918,25.5701,39 On Nile Guest House
111,Udachnyy,RU,52.45,overcast clouds,66.4167,112.4,Severnoye Siyaniye
112,Hit,IQ,97.03,overcast clouds,33.6416,42.8251,ࢪُبَمـا ؏ُـمَـࢪ
113,Figeac,FR,79.18,overcast clouds,44.75,1.9167,Maison de vacances Chalet Le Lac Bleu 27
114,Pochutla,MX,87.82,overcast clouds,15.7432,-96.4661,Hotel Posada San Jose
115,Castro,BR,59.74,moderate rain,-24.7911,-50.0119,CHACARA BAILLY
117,Cuencame,MX,88.34,clear sky,24.8711,-103.6964,HOTEL RICOME
118,Tsumeb,,56.84,clear sky,-19.2333,17.7167,TeaterHuis Guest House
119,Tagusao,PH,79.66,overcast clouds,9.1924,117.8141,Green Villa beach resort
120,Huangnihe,CN,47.8,overcast clouds,43.5583,128.0239,Jinxin Bathing Fashion Hotel
121,Mahebourg,MU,73.69,broken clouds,-20.4081,57.7,Shandrani Beachcomber Resort & Spa
122,Bredasdorp,ZA,53.02,clear sky,-34.5322,20.0403,Bredasdorp Country Manor
123,Port Augusta,AU,50.85,overcast clouds,-32.5,137.7667,Majestic Oasis Apartments
124,Harper,LR,78.76,broken clouds,4.375,-7.7169,Screensaver
126,Noumea,NC,73.0,overcast clouds,-22.2763,166.4572,Hôtel Le Lagon
127,Bethel,US,76.15,overcast clouds,41.3712,-73.414,Courtyard by Marriott Danbury
128,Ancud,CL,46.22,overcast clouds,-41.8697,-73.8203,Hotel Arena Gruesa
129,Asau,RO,76.12,overcast clouds,46.4333,26.4,Casa Mika Ciobanus
130,Qaanaaq,GL,30.42,overcast clouds,77.484,-69.3632,Qaanaaq Hotel
131,Mehamn,NO,46.31,few clouds,71.0357,27.8492,Mehamn Arctic Hotel AS
132,Zhigansk,RU,46.53,clear sky,66.7697,123.3711,Gostinichnyy Kompleks Aylgy
133,Lagoa,PT,63.01,scattered clouds,39.05,-27.9833,Casa Das Faias
134,Kibala,TD,84.15,clear sky,9.1104,18.3463,hotel safari
135,Wageningen,NL,64.78,overcast clouds,51.9667,5.6667,Fletcher Hotel-Restaurant De Wageningsche Berg
136,Antofagasta,CL,67.21,clear sky,-23.65,-70.4,"Holiday Inn Express Antofagasta, an IHG Hotel"
137,Balkhash,KZ,67.14,few clouds,46.844,74.9804,Family
138,Umm Lajj,SA,87.8,overcast clouds,25.0213,37.2685,Moon light Furnished Units
139,Pevek,RU,32.86,snow,69.7008,170.3133,Severnoye Zoloto
140,Valley City,US,68.52,clear sky,46.9233,-98.0032,AmericInn by Wyndham Valley City Conference Center
141,Suez,EG,80.53,clear sky,29.9737,32.5263,Green House
142,Tasiilaq,GL,35.76,broken clouds,65.6145,-37.6368,The Red House
143,Upernavik,GL,30.96,overcast clouds,72.7868,-56.1549,Café de Upernavik
144,Kaseda,JP,66.24,broken clouds,31.4167,130.3167,Sun Stay Kaseda
145,North Battleford,CA,64.49,clear sky,52.7834,-108.2847,Tropical Inn
146,Kodiak,US,65.71,broken clouds,57.79,-152.4072,Best Western Kodiak Inn And Convention Center
147,Waipawa,NZ,49.62,overcast clouds,-41.4122,175.5153,Tora Coastal Walk
148,Goderich,CA,54.91,few clouds,43.7501,-81.7165,Harmony Inn
149,Onega,RU,59.07,overcast clouds,63.9061,38.1404,Lunny Kot Guest House
150,Trogir,HR,80.65,clear sky,43.5125,16.2517,Hotel Medena
151,Vardo,NO,44.58,clear sky,70.3705,31.1107,Vardø Hotel AS
153,Lisa,RO,76.03,few clouds,43.8,25.1333,scarlat cottages
155,Huntingdon,GB,63.93,broken clouds,52.3305,-0.1865,Huntingdon Marriott Hotel
156,Bengkulu,ID,74.7,scattered clouds,-3.8004,102.2655,Grage Hotel Bengkulu
157,Ribeira Grande,PT,68.4,few clouds,38.5167,-28.7,Quinta da Meia Eira
158,Labuhan,ID,77.13,broken clouds,-6.8844,112.2051,DoubleFAG
159,Aasiaat,GL,33.67,scattered clouds,68.7098,-52.8699,Hotel Aasiaat Sømandshjem
160,Lima,PE,69.39,broken clouds,-12.0432,-77.0282,Hotel Kamana
161,Nanakuli,US,78.75,broken clouds,21.3906,-158.1547,Camp Pālehua
162,Hermanus,ZA,57.22,clear sky,-34.4187,19.2345,Misty Waves Boutique Hotel
163,Aniche,FR,67.96,clear sky,50.33,3.2535,AFEJI - FOYER DE VIE
164,Sarangani,PH,82.56,overcast clouds,5.4033,125.4636,JVL Inn and Cafeteria
165,Mirwah,YE,78.96,broken clouds,13.9228,43.9176,عاصم المليكي
166,Vao,NC,72.43,overcast clouds,-22.6667,167.4833,Hotel Kou-Bugny
168,Kupang,ID,77.09,overcast clouds,-10.1667,123.5833,Hotel On The Rock by Prasanthi
169,Turukhansk,RU,38.88,overcast clouds,65.8167,87.9833,"ООО ""Туруханская пушнина"""
170,That Phanom,TH,78.31,light rain,16.9364,104.7104,ณ ธาตุพนมเพลส Na That Panom Place Hotel
171,Nampa,US,79.84,clear sky,43.5407,-116.5635,Nampa Downtown
172,Halayhay,PH,83.19,overcast clouds,14.3739,120.8133,Tanza Oasis Hotel and Resort
173,Muravlenko,RU,30.22,overcast clouds,63.7898,74.523,Hostel Rus Muravlenko
174,Nyurba,RU,51.01,clear sky,63.2842,118.3319,"Гостиница ""Comfort"""
176,Itaituba,BR,89.76,scattered clouds,-4.2761,-55.9836,Hotel Campos
177,Mormugao,IN,76.26,broken clouds,15.4,73.8,Coconut Creek Resort
178,Clyde River,CA,44.83,broken clouds,70.4692,-68.5914,Qamaq Hotel
179,Miram Shah,PK,80.13,clear sky,33.0086,70.0697,Bachelor Hostel
181,Baie-Comeau,CA,55.08,clear sky,49.2168,-68.1489,Travelodge by Wyndham Baie-Comeau
182,Warwick,US,76.75,broken clouds,41.7001,-71.4162,Hampton Inn & Suites Providence/Warwick-Airport
183,Avarua,CK,75.25,overcast clouds,-21.2078,-159.775,Paradise Inn
184,Tarazona,ES,85.82,overcast clouds,41.9,-1.7333,La Merced de la Concordia
185,Maneadero,MX,68.11,few clouds,31.7167,-116.5667,Casa De Thompson
187,Bandarbeyla,SO,78.87,scattered clouds,9.4942,50.8122,JABIR HOTEL
188,Barrow,US,24.82,overcast clouds,71.2906,-156.7887,King Eider Inn
189,Talcahuano,CL,55.08,broken clouds,-36.7167,-73.1167,departamento comodo
190,Algeciras,ES,71.28,few clouds,36.1333,-5.4505,AC Hotel by Marriott Algeciras
191,Iqaluit,CA,40.73,few clouds,63.7506,-68.5145,Frobisher Inn
192,Flin Flon,CA,40.84,broken clouds,54.7682,-101.865,Victoria Inn Flin Flon
194,Naryan-Mar,RU,41.02,clear sky,67.6713,53.087,Hostel Agat
195,Iyo,JP,65.41,clear sky,33.7514,132.7014,ウェルピア伊予
196,Itarema,BR,79.77,light rain,-2.9248,-39.9167,"Sea Lounge! Bar, Club & Restaurant"
198,Svetlogorsk,BY,56.21,overcast clouds,52.6333,29.7333,Hotel Svetlogorsk JBIK
199,Carnarvon,AU,63.18,clear sky,-24.8667,113.6333,Hospitality Carnarvon
200,Zalantun,CN,54.84,overcast clouds,48.0,122.7167,GreenTree Alliance Hulunbeier Zhalantun Railway Station Hotel
201,Kapaa,US,79.12,scattered clouds,22.0752,-159.319,Sheraton Kauai Coconut Beach Resort
202,Asfi,MA,68.43,clear sky,32.2994,-9.2372,Hôtel Abda
203,San Quintin,MX,68.16,clear sky,30.4833,-115.95,Don Eddie's Sport Fishing Center
204,Cockburn Town,TC,80.55,overcast clouds,21.4612,-71.1419,Osprey Beach Hotel
205,Koryazhma,RU,61.54,scattered clouds,61.3143,47.1691,Guesthouse Nadezhda
206,Kijang,KR,65.93,clear sky,35.2442,129.2139,Samyang Beach Villa
207,Usinsk,RU,40.19,clear sky,65.9939,57.5281,Dobro Pozhalovaty
208,Maarianhamina,AX,49.86,few clouds,60.0973,19.9348,Park Alandia Hotel
210,Nanortalik,GL,40.55,few clouds,60.1432,-45.2371,Hotel Kap Farvel
211,Cherskiy,RU,39.45,overcast clouds,68.75,161.3,Gostinitsa
212,Yuanping,CN,67.37,overcast clouds,38.7153,112.7575,Yuanping Xinghe Guesthouse
214,Buchanan,LR,79.27,light rain,5.8808,-10.0467,Kamaneahn Hotel Inc
215,Skjervoy,NO,62.6,scattered clouds,70.0311,20.9714,Skjervøy fiskecamp AS
216,Grand Gaube,MU,73.8,clear sky,-20.0064,57.6608,Veranda Paul et Virginie Hotel & Spa
217,Lerwick,GB,51.8,few clouds,60.1545,-1.1494,The Lerwick Hotel
218,Shubarkuduk,KZ,65.37,clear sky,49.1447,56.4872,Sirius
219,Rocha,UY,48.94,overcast clouds,-34.4833,-54.3333,Hotel Arrarte
220,Qui Nhon,VN,79.25,overcast clouds,13.7667,109.2333,Khách sạn Hải Âu Quy Nhơn - Seagull Hotel
221,Cabo San Lucas,MX,84.61,clear sky,22.8909,-109.9124,Vista Roof Restaurant
222,Wladyslawowo,PL,58.55,few clouds,54.7909,18.4009,Gwiazda Morza Resort SPA&SPORT
223,Bay Roberts,CA,44.51,overcast clouds,47.5999,-53.2648,Stonewall Inn
224,Vredendal,ZA,57.25,clear sky,-31.6683,18.5012,Tharrakamma Guest House
225,Yerofey Pavlovich,RU,45.23,overcast clouds,53.9667,121.9667,lounges and warm parking
226,Dasoguz,TM,73.35,clear sky,41.8363,59.9666,Hotel Erik
227,Northam,GB,61.66,few clouds,51.0333,-4.2167,Durrant House Hotel
228,Leningradskiy,RU,55.33,overcast clouds,69.3833,178.4167,Gostinitsa
229,Oltu,TR,60.55,overcast clouds,40.5498,42.0013,Oltu Öğretmenevi
230,Manono,CD,73.78,clear sky,-7.3,27.4167,Hotel hewa bora
231,Bambous Virieux,MU,73.65,broken clouds,-20.3428,57.7575,Casa Tia Villa
232,Bontang,ID,78.87,overcast clouds,0.1333,117.5,KOPKAR Hotel Bintang Sintuk
233,Santa Cruz,BO,65.66,broken clouds,-17.8,-63.1667,Aviador Hotel Boutique
234,Severo-Kurilsk,RU,42.4,light rain,50.6789,156.125,Kak Doma
235,Rexburg,US,73.42,clear sky,43.826,-111.7897,AmericInn by Wyndham Rexburg BYUI
236,Boa Vista,BR,84.18,broken clouds,2.8197,-60.6733,Aipana Plaza Hotel
237,Tabou,CI,79.11,broken clouds,4.423,-7.3528,hotêl doufoulougou
238,Mezen,RU,60.49,few clouds,65.8522,44.24,Gostevoy Dom Everest
239,Sistranda,NO,51.76,scattered clouds,63.7256,8.834,Hotell Frøya
240,Buala,SB,79.65,light rain,-8.145,159.5921,Maringe Lagoon Lodge
241,Ulladulla,AU,46.92,overcast clouds,-35.35,150.4667,Sandpiper Motel
244,Babu,CN,76.15,broken clouds,24.4167,111.5167,IU Hotel Hezhou Bus Terminal
245,Tazovskiy,RU,30.72,overcast clouds,67.4667,78.7,TazHostel
246,Norman Wells,CA,68.04,broken clouds,65.282,-126.8329,Heritage Hotel
247,Turan,VN,78.78,broken clouds,16.0678,108.2208,Grand Mercure Danang
248,Cayenne,GF,87.84,broken clouds,4.9333,-52.3333,Hôtel Le Dronmi
249,Bentiu,SS,85.6,broken clouds,9.2333,29.8333,Mandela hôtel
250,Taltal,CL,64.02,clear sky,-25.4,-70.4833,Residencial Karime
251,Cidreira,BR,55.69,overcast clouds,-30.1811,-50.2056,Hotel Castelo
252,Ankazoabo,MG,62.55,clear sky,-22.2833,44.5167,ENCEIN BUREAU CISCO
253,Dongsheng,CN,70.3,overcast clouds,39.8161,109.9776,Crowne Plaza Ordos
255,Oktyabrskoye,RU,68.14,clear sky,43.0645,44.7417,Prolesok Mini-hotel
256,Havoysund,NO,55.63,few clouds,70.9963,24.6622,Arctic View Glamping & Restaurant
257,Dwarka,IN,81.39,few clouds,22.2394,68.9678,Hotel Narayan Avezika Comfort
259,Magadan,RU,36.54,overcast clouds,59.5667,150.8,Magadan hotel
260,Laguna,US,87.31,clear sky,38.421,-121.4238,"Holiday Inn Express & Suites Elk Grove Central - Hwy 99, an IHG Hotel"
262,Salvador,SV,84.24,overcast clouds,13.8333,-88.9167,Chico's Ranch
263,Bulungu,CD,77.54,broken clouds,-4.55,18.6,Maison MC Michel
264,Maceio,BR,78.24,broken clouds,-9.6658,-35.7353,Hotel Ponta Verde Maceió
265,Yellowknife,CA,59.56,few clouds,62.456,-114.3525,The Explorer Hotel
266,Masuda,JP,62.98,clear sky,34.6667,131.85,Masuda Green Hotel Morris
267,Whitehorse,CA,72.1,scattered clouds,60.7161,-135.0538,The Sternwheeler Hotel & Conference Centre
268,Vila Franca Do Campo,PT,70.2,overcast clouds,37.7167,-25.4333,Pestana Bahia Praia
269,Srivardhan,IN,81.86,overcast clouds,18.0333,73.0167,Savli Resort/Hotel - Shrivardhan
270,Marsa Matruh,EG,72.54,clear sky,31.3525,27.2453,Beau Site
271,Freeport,US,81.48,broken clouds,40.6576,-73.5832,The Freeport Inn and Marina
272,Tuatapere,NZ,45.18,overcast clouds,-46.1333,167.6833,Ron and Tony's Bed & Breakfast
273,Gat,IL,75.4,clear sky,31.61,34.7642,OlusHome
274,Estelle,US,91.99,broken clouds,29.8458,-90.1067,Boomtown Casino & Hotel New Orleans
275,Richards Bay,ZA,61.54,clear sky,-28.783,32.0377,BON Hotel Waterfront Richards Bay
276,Broken Hill,AU,47.66,overcast clouds,-31.95,141.4333,Royal Exchange Hotel
277,Dawson Creek,CA,67.64,clear sky,55.7666,-120.2362,Peace Villa Motel
278,Saint-Francois,FR,72.84,overcast clouds,46.4154,3.9054,Manoir Du Bonheur
279,Chicama,PE,64.94,few clouds,-7.8447,-79.1469,Balihai Bungalows
280,Biak,ID,76.48,overcast clouds,-0.9131,122.8766,Penginapan Kim
281,Concarneau,FR,74.19,clear sky,47.875,-3.9225,Brit Hotel de L' Océan
282,Wilhelmsburg,AT,67.1,overcast clouds,48.1057,15.6054,August Riegler
284,San Martin,AR,52.34,clear sky,-33.081,-68.4681,Finca Vivencias
285,Souillac,MU,73.78,broken clouds,-20.5167,57.5167,Shanti Maurice Resort & Spa
286,Buarcos,PT,70.14,scattered clouds,40.166,-8.8768,Hotel Sweet Atlantic SPA
287,Embonas,GR,71.73,scattered clouds,36.2269,27.8564,Hotel Ataviros
288,Santa Rosa,PH,83.1,overcast clouds,14.3122,121.1114,Erlyn’s Sta Rosa City Home
289,Sao Felix Do Xingu,BR,86.09,broken clouds,-6.6447,-51.995,Rio Xingu Camping
292,Lac-Megantic,CA,70.56,overcast clouds,45.5834,-70.8823,Motel Le Quiet
293,Saint-Joseph,RE,68.38,clear sky,-21.3667,55.6167,"""Plantation Bed and Breakfast"
294,Makakilo City,US,77.32,broken clouds,21.3469,-158.0858,Marriott's Ko Olina Beach Club
295,Illapel,CL,62.51,light rain,-31.6308,-71.1653,Hotel Londres
296,Ambulu,ID,75.09,broken clouds,-8.345,113.6058,Hotel Ambulu Jember
297,Kununurra,AU,76.98,overcast clouds,-15.7667,128.7333,Hotel Kununurra
298,Kapuskasing,CA,66.29,broken clouds,49.4169,-82.4331,Park Inn Motel
299,Grindavik,IS,48.67,overcast clouds,63.8424,-22.4338,Northern Light Inn & Max's Restaurant
300,Vila Velha,BR,91.35,clear sky,-20.3297,-40.2925,Hotel Vitória Palace
301,Kushiro,JP,46.85,overcast clouds,42.975,144.3747,Toyoko Inn Kushiro Jujigai
302,Road Town,VG,86.04,scattered clouds,18.4167,-64.6167,"ZINGARA 76ft Catamaran, full crew-all included"
303,Nishihara,JP,76.28,scattered clouds,26.1842,127.7558,Minshuku Agaihama
304,Fallon,US,80.46,broken clouds,39.4735,-118.7774,Best Western Fallon Inn & Suites
306,Kibre Mengist,ET,56.5,broken clouds,5.8833,38.9833,kal beauty salone adola
307,Oranjemund,,58.14,clear sky,-28.55,16.4333,The Fisherman's Cove
308,Jumla,NP,54.81,clear sky,29.2747,82.1838,Royal Garden Hotel
309,Salalah,OM,81.37,scattered clouds,17.0151,54.0924,"HAMDAN PLAZA HOTEL SALALAH, an HTG Hotel"
311,Tarauaca,BR,87.94,overcast clouds,-8.1614,-70.7656,Flat Temporada
312,Jalu,LY,88.68,clear sky,29.0331,21.5482,صاحبة الفخامة
313,Nelson Bay,AU,43.09,scattered clouds,-32.7167,152.15,Mantra Nelson Bay
314,Sur,OM,84.85,scattered clouds,22.5667,59.5289,Sur Plaza Hotel
315,Kolaras,IN,93.25,overcast clouds,25.2333,77.6,Shiv Shakti Garden (Gayatri Colony)
316,Muros,ES,69.1,clear sky,42.7762,-9.0603,Apartment Av. Castelao
317,Waingapu,ID,76.32,few clouds,-9.6567,120.2641,Pondok Wisata Elim
318,Luena,AO,55.18,clear sky,-11.7833,19.9167,Hotel Kandamba
319,Coihaique,CL,29.01,broken clouds,-45.5752,-72.0662,Diego De Almagro Coyhaique
320,Tiarei,PF,75.22,light rain,-17.5333,-149.3333,Le Rocher de Tahiti
321,Atasu,KZ,58.03,clear sky,48.6814,71.6433,Dostyk
322,Ornskoldsvik,SE,53.62,light rain,63.2909,18.7153,ファーストホテル スタット
323,Bitung,ID,74.25,overcast clouds,1.4451,125.1824,K2 Lembeh
324,Naze,JP,70.72,overcast clouds,28.3667,129.4833,Shishime Hotel
325,Clearlake,US,87.35,overcast clouds,38.9582,-122.6264,Americas Best Value Inn & Suites Clearlake Wine Country
327,Uslar,DE,63.84,broken clouds,51.6569,9.635,Romantisches Hotel Menzhausen
328,Qaqortoq,GL,44.11,clear sky,60.7167,-46.0333,Siniffik Inn
329,Marawi,PH,68.22,overcast clouds,7.9986,124.2928,Derogongan Residence
330,Palmer,US,76.55,overcast clouds,42.1584,-72.3287,Wedgewood Motel
331,Pula,HR,73.96,clear sky,44.8683,13.8481,Park Plaza Histria Pula
332,Coolum Beach,AU,54.23,clear sky,-26.5333,153.1,Coolum Beach Resort
333,Ponta Do Sol,PT,71.71,broken clouds,32.6667,-17.1,Hotel do Campo
334,Port Hedland,AU,59.05,clear sky,-20.3167,118.5667,The Esplanade Hotel
335,Palaikastron,GR,72.05,clear sky,35.2,26.25,Marina Village
337,Urumqi,CN,58.15,clear sky,43.801,87.6005,Hua Ling Grand Hotel Urumqi
338,Erdenet,MN,50.67,overcast clouds,49.0333,104.0833,Erdenet hotel
339,Ixtapa,MX,88.99,clear sky,20.7,-105.2,hotel la terminal
340,Gaimersheim,DE,69.71,broken clouds,48.807,11.368,Der Heidehof
341,Victoria,HK,83.32,broken clouds,22.2855,114.1577,Mini Central
342,Fuerte Olimpo,PY,70.12,overcast clouds,-21.0415,-57.8738,Hospedaje DAMI
343,Sibolga,ID,75.25,overcast clouds,1.7427,98.7792,Hotel Syariah CN Darussalam
344,Guerrero Negro,MX,71.15,clear sky,27.9769,-114.0611,"Casa Laguna, Bed & Breakfast"
345,Hami,CN,68.56,few clouds,42.8,93.45,Laoyutang Resort
346,Camacha,PT,65.62,scattered clouds,33.0833,-16.3333,Hotel Porto Santo & Spa
348,Ambon,ID,75.34,scattered clouds,-3.6954,128.1814,Swiss-Belhotel Ambon
349,Constitucion,CL,55.31,overcast clouds,-35.3333,-72.4167,Hotel Boutique Las Azucenas
350,Husavik,IS,47.16,overcast clouds,66.0449,-17.3389,Bjarnabúð
351,Norden,DE,57.94,scattered clouds,53.6,7.2,Hotel Aquarius
352,Bogorodskoye,RU,61.07,overcast clouds,56.55,37.8833,Sosnoviy Bor
354,Kahului,US,82.98,few clouds,20.8947,-156.47,Maui Seaside Hotel
355,Sisimiut,GL,44.51,scattered clouds,66.9395,-53.6735,Hotel Sisimiut
356,Geraldton,AU,48.61,clear sky,-28.7667,114.6,Broadwater Mariner Resort
357,Penapolis,BR,85.84,broken clouds,-21.4197,-50.0775,Sakr Hotel
358,Prieska,ZA,54.39,clear sky,-29.6641,22.7474,Avenue GuestHouse
359,Mackenzie,CA,70.02,clear sky,55.2999,-123.1698,Hilton Shop
360,Ahipara,NZ,58.96,few clouds,-35.1667,173.1667,Ahipara Holiday Park
361,Zubova Polyana,RU,63.34,overcast clouds,54.0771,42.8372,Ромашка
362,Ormara,PK,82.94,clear sky,25.2088,64.6357,Kenara Colony house for Rent
363,Jackson,US,77.92,clear sky,42.4165,-122.8345,Agate Village Apartments
364,Porbandar,IN,81.3,broken clouds,21.6422,69.6093,Lords Inn Porbandar
365,Lethem,GY,86.02,broken clouds,3.3803,-59.7968,Savannah Inn
366,Bonavista,CA,39.85,overcast clouds,48.6499,-53.1147,Sweet Sharons bnb
367,Mitsamiouli,KM,78.24,clear sky,-11.3847,43.2844,Foyer ADM
368,Pahrump,US,91.94,clear sky,36.2083,-115.9839,Best Western Pahrump Oasis
369,Saint George,US,91.63,clear sky,37.1041,-113.5841,Best Western Plus Abbey Inn
370,Craig,US,67.39,few clouds,40.5153,-107.5464,"Candlewood Suites Craig-Northwest, an IHG Hotel"
371,Vanimo,PG,77.63,few clouds,-2.6741,141.3028,Vahmoneh Lodge Vanimo
372,Mount Isa,AU,64.17,overcast clouds,-20.7333,139.5,ibis Styles Mt Isa Verona
373,Pauini,BR,81.72,overcast clouds,-7.7136,-66.9764,Casa do Kiwliks
374,Fortuna,US,67.93,clear sky,40.5982,-124.1573,Super 8 by Wyndham Fortuna
375,Rapid Valley,US,69.6,clear sky,44.0625,-103.1463,Fairfield Inn & Suites by Marriott Rapid City
376,Port Blair,IN,80.64,mist,11.6667,92.75,"Welcomhotel By ITC Hotels, Bay Island, Port Blair"
377,Monrovia,LR,79.93,light rain,6.3005,-10.7969,Sunset Inn
378,Port Lincoln,AU,51.53,moderate rain,-34.7333,135.8667,Port Lincoln Hotel
379,Puerto Escondido,MX,84.42,overcast clouds,15.85,-97.0667,Aldea del Bazar Hotel and Spa
380,Plouzane,FR,69.98,clear sky,48.3833,-4.6167,Lymina
381,Santa Isabel Do Rio Negro,BR,83.07,overcast clouds,-0.4139,-65.0192,Hotel GSA
382,Troitsko-Pechorsk,RU,47.1,overcast clouds,62.7084,56.1964,Pechora Gostinitsa
383,Loughrea,IE,53.85,broken clouds,53.1969,-8.5669,Lough Rea Hotel & Spa
384,Guozhen,CN,73.9,few clouds,34.3659,107.359,Yucai Hotel
385,Codrington,AU,46.8,overcast clouds,-38.2667,141.9667,Codrington Gardens Bed And Breakfast
386,Houston,US,93.31,clear sky,29.7633,-95.3633,"Hotel ICON, Autograph Collection"
387,Hanzhong,CN,70.61,scattered clouds,33.0728,107.0303,Guorui Hotel
388,Mae Ramat,TH,74.05,overcast clouds,16.984,98.5166,บ้านโฮ่งโฮมสเตย์ แม่ระมาด ตาก
389,Burriana,ES,74.25,overcast clouds,39.889,-0.085,Hotel Beatriz
390,Rio Grande,BR,59.11,overcast clouds,-32.035,-52.0986,Hotel Atlântico Rio Grande
392,Port Hueneme,US,92.19,haze,34.1478,-119.1951,Hampton Inn Channel Islands Harbor
393,Pangnirtung,CA,39.2,few clouds,66.1451,-65.7125,Kilabuk Lodge
394,Iwaki,JP,59.02,overcast clouds,37.05,140.8833,Toyoko Inn Iwaki Ekimae
395,Los Llanos De Aridane,ES,67.75,scattered clouds,28.6585,-17.9182,Valle Aridane
396,Mudgee,AU,36.79,overcast clouds,-32.5943,149.5871,Parklands Resort & Conference Centre
397,Nagothana,IN,81.75,overcast clouds,18.5333,73.1333,Kamath Residency Nature Resort And Restaurant.
399,Aklavik,CA,46.4,shower rain,68.2191,-135.0107,Aklavik Inn
400,Valparaiso,CL,60.44,broken clouds,-33.0393,-71.6273,Hotel Ultramar
401,Salinopolis,BR,83.73,overcast clouds,-0.6136,-47.3561,Salinas Park Resort Maçarico AP101
402,Valavanur,IN,84.94,overcast clouds,11.9209,79.5824,ஸ்ரீ செல்வ வினாயகர் கோவில்
403,Kyren,RU,49.44,few clouds,51.6828,102.1408,"Energetik, Pansionat Ooo ""Grand Baykal"""
404,Oriximina,BR,82.2,broken clouds,-1.7656,-55.8661,Pousada Tia Amélia
406,Swellendam,ZA,52.39,clear sky,-34.0226,20.4417,De Kloof Heritage Estate boutique Hotel & SPA
407,Esso,RU,38.97,few clouds,55.9333,158.7,Paramushir Tur
408,Sinnamary,GF,75.04,overcast clouds,5.3833,-52.95,ALETHEIA Appartement Sinnamary
410,Palu,ID,74.55,light rain,-0.8917,119.8707,Hotel Santika Palu
411,Bathsheba,BB,83.01,scattered clouds,13.2167,-59.5167,Atlantis Hotel
412,Arraial Do Cabo,BR,75.16,broken clouds,-22.9661,-42.0278,Pousada Porto Praia
413,Maldonado,UY,51.19,overcast clouds,-34.6667,-54.9167,La Cimarrona
414,Touros,BR,81.57,overcast clouds,-5.1989,-35.4608,INN NEW HORIZON
415,Reconquista,AR,59.56,clear sky,-29.15,-59.65,Grand Hotel
416,Salto,UY,57.36,clear sky,-31.3833,-57.9667,Gran Hotel Uruguay
417,Ravar,IR,78.91,clear sky,31.2656,56.8055,computertik
418,Talnakh,RU,34.21,broken clouds,69.4865,88.3972,Talnakh Hotel
419,Poronaysk,RU,40.08,overcast clouds,49.2167,143.1167,Avtovokzal Khostel Stolovaya
420,Baturaja,ID,70.86,moderate rain,-4.1333,104.1667,"HOTEL Sekar Sunja, Baturaja Timur, Ogan Komering Ulu"
421,Vilhena,BR,84.42,broken clouds,-12.7406,-60.1458,Hotel Mirage
422,Port-Cartier,CA,70.02,overcast clouds,50.0334,-66.8654,Le Q'Artier
424,Ontario,US,93.87,clear sky,34.0633,-117.6509,Capri Motel
425,Jadu,LY,83.66,clear sky,31.953,12.0261,امياس للصرافة
426,Jijiga,ET,63.25,scattered clouds,9.35,42.8,RAMAAS HOTEL
427,Da Nang,VN,78.78,broken clouds,16.0678,108.2208,Grand Mercure Danang
428,Lambarene,GA,77.14,light rain,-0.7001,10.2406,Le Refuge
429,Jining,CN,76.39,overcast clouds,35.405,116.5814,Yunhe Star Hotel
430,Isangel,VU,73.51,overcast clouds,-19.55,169.2667,Tanna Lodge
431,Santa Maria,BR,56.5,few clouds,-29.6842,-53.8069,Hotel Morotin
432,Muzambinho,BR,76.05,overcast clouds,-21.3758,-46.5256,Hostel Muzambinho
433,Iranshahr,IR,91.74,clear sky,27.2025,60.6848,نیک سرشت
434,Quatre Cocos,MU,73.51,scattered clouds,-20.2078,57.7625,Sunrise Attitude Hotel
435,Krasnoselkup,RU,31.95,scattered clouds,65.7,82.4667,Krasnosel'kupnefteprodukt
436,Katsuura,JP,68.34,scattered clouds,35.1333,140.3,Katsuura Hotel Mikazuki
437,Deputatskiy,RU,38.82,overcast clouds,69.3,139.9,Baza Otdykha
438,Meybod,IR,84.22,clear sky,32.2501,54.0166,Traditional Hotel Restaurant Haji Malek
439,Kholmsk,RU,41.92,overcast clouds,47.0511,142.0569,GH Hotel
440,Dhidhdhoo,MV,82.22,overcast clouds,6.8833,73.1,Dhidhoo beach
441,Papara,BR,79.68,overcast clouds,-3.9839,-38.7273,Bela vista Maranguape
442,Chatham,GB,63.61,scattered clouds,51.3789,0.5279,King Charles Hotel in Kent
443,Ulaangom,MN,48.22,clear sky,49.9811,92.0667,Achit Nuur Hotel & Restaurant
444,Torquay,GB,62.58,clear sky,50.4638,-3.5143,The Grand Hotel
445,Strezhevoy,RU,31.5,clear sky,60.7333,77.5889,Sibiryachka
446,Staraya Russa,RU,59.27,overcast clouds,57.9944,31.3608,Hotel Polist
447,Ostersund,SE,53.62,clear sky,63.1792,14.6357,Best Western Hotel Gamla Teatern
448,Jiayuguan,CN,66.33,overcast clouds,39.8167,98.3,Jiugang Hotel - Jiayuguan
449,Kemin,KG,58.93,overcast clouds,42.7846,75.6892,Hotel Kok-Oirok
450,Dudinka,RU,34.63,overcast clouds,69.4058,86.1778,Hotel Viktoria
451,Alice Town,BS,81.75,overcast clouds,25.7167,-79.3,Bimini Big Game Club Resort & Marina
452,Soyo,AO,74.5,clear sky,-6.1349,12.3689,Hotel Mpampa
453,Barabai,ID,74.17,light rain,-2.5833,115.3833,HOTEL BOURAQ INDAH PERMAI
454,Ihosy,MG,56.84,few clouds,-22.4,46.1167,Hotely Sariaka
455,Mana,GF,73.8,light rain,5.6592,-53.7767,LE SAMANA
456,Sechura,PE,76.69,few clouds,-5.5569,-80.8222,Hospedaje Costa Bella
457,Samarai,PG,80.8,moderate rain,-10.6167,150.6667,Nuli Sapi
458,Matara,LK,77.88,overcast clouds,5.9485,80.5353,Amaloh Boutique Resort
459,Suzhou,CN,71.24,overcast clouds,31.3114,120.6181,Holiday Inn Jasmine Suzhou
460,Hamilton,US,75.07,overcast clouds,39.1834,-84.5333,Six Acres Bed & Breakfast
461,Bajil,YE,90.21,overcast clouds,15.0584,43.2851,فندق حضرموت
462,Surt,LY,75.15,clear sky,31.2089,16.5887,الهادي ابوشعاله سرت
463,Haines Junction,CA,72.07,overcast clouds,60.7522,-137.5108,Parkside Inn
465,Chegdomyn,RU,45.14,overcast clouds,51.1167,133.0167,Gostinitsa Bureya
466,Ondjiva,AO,58.66,clear sky,-17.0667,15.7333,COMBUESA
467,Wasilla,US,69.53,clear sky,61.5814,-149.4394,Alaska's Select Inn Wasilla
469,Dabola,GN,87.84,few clouds,10.75,-11.1167,Hotel Tinkisso
470,Miraflores,MX,72.25,scattered clouds,19.2167,-98.8083,Hotel Mansión
471,Prince Rupert,CA,57.29,clear sky,54.3161,-130.3201,Crest Hotel
472,Walvis Bay,,74.35,clear sky,-22.9575,14.5053,Oyster Box Guesthouse
473,Ituango,CO,69.01,overcast clouds,7.1712,-75.764,HOTEL LA CASONA ITUANGO
474,Machaneng,BW,56.89,clear sky,-23.1862,27.4886,Matswelo Hotel
475,Chuy,UY,50.9,overcast clouds,-33.6971,-53.4616,Nuevo Hotel Plaza
476,Rincon,US,97.86,few clouds,32.296,-81.2354,Days Inn Rincon
477,San Ramon,US,84.65,clear sky,37.7799,-121.978,San Ramon Marriott
478,Sorland,NO,53.46,clear sky,67.667,12.6934,Sjybrygga fiskecamp
479,Mazatlan,MX,83.01,scattered clouds,23.2167,-106.4167,Hotel La Siesta
480,Verkhnevilyuysk,RU,50.52,few clouds,63.4453,120.3167,Gostinitsa Mila
481,Sakaiminato,JP,62.58,few clouds,35.55,133.2333,Italian pasley
482,Puerto Baquerizo Moreno,EC,76.19,broken clouds,-0.9,-89.6,Hotel los Algarrobos
483,Altus,US,71.98,overcast clouds,34.6381,-99.334,"Holiday Inn Express & Suites Altus, an IHG Hotel"
484,Paamiut,GL,37.67,clear sky,61.994,-49.6678,Pistut
485,Ibimirim,BR,81.37,overcast clouds,-8.5406,-37.6903,Hotel Paulistão
486,Bodden Town,KY,84.97,scattered clouds,19.2833,-81.25,Will T Place
487,Cantaura,VE,92.3,overcast clouds,9.3057,-64.3584,Hotel Lorenzana
488,Kjollefjord,NO,55.45,few clouds,70.9457,27.3465,Hotel Nordkyn
489,Brody,UA,55.99,overcast clouds,50.0879,25.1503,Europe
490,Mujiayingzi,CN,73.78,overcast clouds,42.1167,118.7833,Jinjiang Hotel
491,Hastings,GB,62.78,clear sky,50.8552,0.5729,Zanzibar Hotel
492,Jiuquan,CN,67.71,overcast clouds,39.7432,98.5174,Jiuquan Hotel
494,Nouadhibou,MR,71.58,sand,20.931,-17.0347,El Medina
495,Murakami,JP,55.27,scattered clouds,38.2333,139.4833,Senami Grand Hotel Haginoya
496,Neiafu,TO,79.48,few clouds,-18.65,-173.9833,Mystic Sands Beachfront Accommodation
497,Ferrol,ES,66.72,light rain,43.4832,-8.2369,Hotel Spa Sercotel Odeón
498,Luanda,AO,72.57,clear sky,-8.8368,13.2343,EPIC SANA Luanda
499,Margate,GB,59.11,few clouds,51.3813,1.3862,Premier Inn Margate hotel
500,Westport,US,79.29,light rain,41.1415,-73.3579,The Westport Inn
501,Shingu,JP,63.12,clear sky,33.7333,135.9833,Shingu UI Hotel
502,Syracuse,IT,76.37,clear sky,37.0881,15.2792,Hotel Posta
504,Contamana,PE,89.15,broken clouds,-7.3333,-75.0167,Shiringal Touristic Park
505,Varhaug,NO,51.35,overcast clouds,58.6147,5.6457,Jonas Bue
506,Khani,GE,62.17,broken clouds,41.9563,42.9566,კურორტი ზეკარი/Resort Zekari
507,Kenitra,MA,70.56,clear sky,34.261,-6.5802,Bienvenue chez vous
509,Sakakah,SA,90.97,overcast clouds,29.9697,40.2064,Fakhamat Al Orjoana Apartment
510,Yulara,AU,51.84,few clouds,-25.2406,130.9889,Desert Gardens Hotel - Ayers Rock Resort
511,Port Moresby,PG,72.82,scattered clouds,-9.4431,147.1797,Lamana Hotel (Port Moresby)
513,Qujing,CN,61.36,few clouds,25.4833,103.7833,Yulong Hotel
514,Muzhi,RU,35.78,clear sky,65.3667,64.6667,Gostinitsa
515,La Ronge,CA,59.22,few clouds,55.1001,-105.2842,Northland Motor Hotel
516,Gizo,SB,81.14,light rain,-8.103,156.8419,Imagination Island
517,Poli,TZ,59.27,overcast clouds,-3.3333,36.8,Urafiki House
518,Te Anau,NZ,40.06,broken clouds,-45.4167,167.7167,Kingsgate Hotel Te Anau
519,Formosa,AR,62.58,clear sky,-26.1775,-58.1781,Asterión Hotel
520,Phan Thiet,VN,77.5,overcast clouds,10.9333,108.1,Hotel Saigon-PT
521,Ortona,IT,79.18,clear sky,42.3496,14.4039,La Casa del Palombaro
522,General Roca,AR,49.71,broken clouds,-39.0333,-67.5833,Hotel El Recreo
523,Buraydah,SA,95.45,clear sky,26.326,43.975,Mövenpick Qassim
524,Gorontalo,ID,74.46,overcast clouds,0.5412,123.0595,Maqna Hotel by Prasanthi
525,Lorengau,PG,81.63,scattered clouds,-2.0226,147.2712,Lorengau Harbourside Hotel
526,Cuauhtemoc,MX,86.04,clear sky,28.4167,-106.8667,Motel Tarahumara Inn
527,Brae,GB,49.64,broken clouds,60.3964,-1.353,Busta House Hotel
528,Selikhino,RU,44.11,overcast clouds,50.3672,137.4996,Tosklivyy Dom
529,Rio Gallegos,AR,35.65,clear sky,-51.6226,-69.2181,Hotel Santa Cruz
530,Monywa,MM,85.03,overcast clouds,22.1167,95.1333,Monywa Hotel
531,Cahors,FR,65.8,few clouds,44.4167,1.3333,Les Gîtes du Colombier
532,Hay River,CA,69.78,scattered clouds,60.8156,-115.7999,Ptarmigan Inn
533,Atambua,ID,73.27,broken clouds,-9.1061,124.8925,Kost Alfa Flat
534,Makurdi,NG,83.01,light rain,7.7411,8.5121,Doo Palace Hotel
535,Kapoeta,SS,79.84,overcast clouds,4.7717,33.5903,Eastgate Hotel
536,Paragominas,BR,79.09,overcast clouds,-2.9667,-47.4833,INOVA
537,Mosquera,CO,66.29,broken clouds,4.7059,-74.2302,Hotel SJ
538,Savannah Bight,HN,82.44,overcast clouds,16.45,-85.85,Villa on Dunbar Rock
539,Phaltan,IN,79.43,overcast clouds,17.9833,74.4333,Hotel New Vijay
541,Ucluelet,CA,58.08,overcast clouds,48.9329,-125.5528,Black Rock Oceanfront Resort
543,Darab,IR,81.3,clear sky,28.7519,54.5444,Naghshe shapoor Hotel
544,Clinton,US,76.28,clear sky,42.587,-82.9199,River's Edge
545,Anadyr,RU,50.5,fog,64.75,177.4833,Отке17.ру — жильё для командированных
546,Meulaboh,ID,75.7,overcast clouds,4.1363,96.1285,Kost Pria
547,Myre,NO,60.03,clear sky,69.1036,15.9492,Alveland AS
548,Miri,MY,77.14,scattered clouds,4.4148,114.0089,"Mega Hotel, Miri"
549,Kholmogory,RU,64.63,overcast clouds,64.2229,41.656,Гостевая комната
550,Sao Joao Da Barra,BR,89.69,clear sky,-21.6403,-41.0511,Pousada Porto De Canoas
551,Santa Ana,US,89.85,scattered clouds,33.7456,-117.8678,"Motel 6 Santa Ana, CA"
552,Caravelas,BR,79.09,clear sky,-17.7125,-39.2481,Pousada dos Navegantes
553,Kirov,RU,63.37,overcast clouds,58.5966,49.6601,Tsentral'naya
554,Porto Novo,BJ,84.02,clear sky,6.4965,2.6036,Tour Eiffel Hotel Benin
555,Laurel,US,91.53,broken clouds,39.0993,-76.8483,Days Inn & Suites by Wyndham Laurel Near Fort Meade
556,Narsaq,GL,48.22,clear sky,60.9167,-46.05,Sleep In Narsaq
557,Novo Aripuana,BR,81.97,overcast clouds,-5.1206,-60.3797,Hotel Ezequiel
558,Puyang,CN,70.3,scattered clouds,29.4603,119.8861,Xianhua Sandalwood Celebrity Hotel
559,Henties Bay,,65.14,clear sky,-22.116,14.2845,Fishermans Guest House
560,Gravdal,NO,55.06,clear sky,68.1214,13.5031,Skreda Rorbusuiter
561,Aguimes,ES,72.23,few clouds,27.9054,-15.4461,Hotel Villa de Aguimes
563,Aswan,EG,89.56,overcast clouds,24.0934,32.907,Nuba Nile
564,Sandwick,GB,51.62,few clouds,60.0,-1.25,Beach House Self-Catering Accomodation
565,Benguela,AO,72.27,broken clouds,-12.5763,13.4055,Hotel Praia Morena
566,Tucuman,AR,60.58,clear sky,-26.8241,-65.2226,Dallas Hotel Tucuman
567,Pitimbu,BR,75.79,broken clouds,-7.4706,-34.8086,Reserva do Abiaí
568,Alfredo Chaves,BR,82.89,few clouds,-20.635,-40.7497,Recanto do Sonhos
569,Nelson,NZ,46.29,few clouds,-41.2833,173.2833,Trailways Hotel
570,Den Helder,NL,59.97,overcast clouds,52.9599,4.7593,Hotel Den Helder
571,Lichinga,MZ,55.49,clear sky,-13.3128,35.2406,Residencial Bendiak
572,Mogocha,RU,45.07,overcast clouds,53.7333,119.7667,Yalta Inn
573,Birjand,IR,72.07,clear sky,32.8663,59.2211,Birjand Tourist Hotel
574,Korla,CN,73.45,clear sky,41.7597,86.1469,Gulisitan Hotel
575,Dodola,ET,53.02,broken clouds,6.9833,39.1833,Derib kidanemariam
576,Brekstad,NO,52.99,broken clouds,63.687,9.6654,Orland Kysthotell
577,Esfahan,IR,73.04,few clouds,32.6572,51.6776,Abbasi Hotel
578,Saurimo,AO,64.29,few clouds,-9.6608,20.3916,Hotel Kawissa Saurimo
579,Alpena,US,68.11,clear sky,45.0617,-83.4327,Days Inn by Wyndham Alpena
581,Ahvaz,IR,96.75,clear sky,31.3203,48.6693,tashrifat tourism travel agency
582,Bintulu,MY,75.61,few clouds,3.1667,113.0333,900 Boutique INN
583,Khandyga,RU,50.88,broken clouds,62.6667,135.6,Apel'sin
585,Ballina,AU,47.01,clear sky,-28.8667,153.5667,Ramada Hotel & Suites by Wyndham Ballina Byron
586,San Andres,CO,82.42,broken clouds,12.5847,-81.7006,Hotel Arena Blanca
587,Okato,NZ,53.19,broken clouds,-39.2,173.8833,Stony River House
588,Hostotipaquillo,MX,88.05,clear sky,21.0667,-104.0667,Departamento Luna
589,Lazaro Cardenas,MX,84.67,clear sky,17.9583,-102.2,HOTEL QUINTA ANTIGUA
590,Kitui,KE,64.94,overcast clouds,-1.367,38.0106,Heritage Bliss Hotel
591,Shenjiamen,CN,67.51,scattered clouds,29.9576,122.298,Jinjiang Inn Zhoushan Putuo Shenjiamen
592,Kimbe,PG,74.53,overcast clouds,-5.5502,150.1429,Kimbe Bay Hotel
593,Cascais,PT,69.17,broken clouds,38.6979,-9.4215,Hotel Vila Galé Cascais
594,Fayaoue,NC,75.58,overcast clouds,-20.65,166.5333,Chez Dydyce Guesthouse
595,Clovis,US,89.83,overcast clouds,36.8252,-119.7029,Fairfield Inn & Suites by Marriott Fresno Clovis
596,Pingzhuang,CN,69.98,overcast clouds,42.0372,119.2889,Haoke Guest House
597,Jenbach,AT,56.86,broken clouds,47.4013,11.7406,Hotel Schwarzbrunn
598,Bahia Blanca,AR,50.86,clear sky,-38.7196,-62.2724,Hotel Argos
599,Charlottesville,US,94.12,overcast clouds,38.0293,-78.4767,Hilton Garden Inn Charlottesville
600,Chenzhou,CN,76.1,overcast clouds,25.8,113.0333,Thank Inn Chain Hotel hunan chenzhou beihu district wuling square
602,Tongchuan,CN,71.58,clear sky,35.0806,109.0897,Tongchuan Hotel
603,Norsup,VU,78.13,scattered clouds,-16.0667,167.3833,Nabelchel Bungalows
604,Wanlaweyn,SO,76.06,broken clouds,2.6185,44.8938,GAASHAAN HOME
605,Somerset West,ZA,59.88,clear sky,-34.084,18.8211,Lourens River Guesthouse
606,Maymyo,MM,66.72,overcast clouds,22.0333,96.4667,Tiger Hotel
607,Camalu,MX,69.89,clear sky,30.85,-116.0667,La Cueva del Pirata
608,Tecoanapa,MX,84.24,broken clouds,16.5167,-98.75,Hotel Manglares
610,Banda Aceh,ID,76.93,light rain,5.5577,95.3222,OYO 884 Rumoh PMI Hotel
611,Alamosa,US,71.87,clear sky,37.4695,-105.87,Best Western Alamosa Inn
612,Dongkan,CN,70.93,broken clouds,33.9997,119.8308,Triumphal Resort
613,Leh,IN,48.81,few clouds,34.1667,77.5833,Hotel Ladakh Greens
614,Huaihua,CN,74.41,light rain,27.5494,109.9592,怀化天庆大酒店
615,Boguchany,RU,42.62,light rain,58.3814,97.4531,Uyut
616,Palmerston,AU,76.98,few clouds,-12.486,130.9833,Quest Palmerston - Serviced Apartments and Accommodation
617,Kataysk,RU,58.68,broken clouds,56.289,62.5841,Prival
618,Svilengrad,BG,70.86,clear sky,41.7667,26.2,Park Hotel Romantica
619,Tucumcari,US,66.94,broken clouds,35.1717,-103.725,"Holiday Inn Express & Suites Tucumcari, an IHG Hotel"
620,Revelstoke,CA,57.22,overcast clouds,50.9832,-118.2023,Best Western Plus Revelstoke
621,Gonzalez,US,91.65,scattered clouds,30.5816,-87.2914,Rosan Plaza Hotel
622,Shu,KZ,64.04,overcast clouds,43.5983,73.7614,Shyngyzkhan
623,Vanersborg,SE,57.15,broken clouds,58.3807,12.3234,Best Western Arena Hotell
624,Sao Miguel Do Araguaia,BR,93.13,broken clouds,-13.275,-50.1628,Hotel Executivo Palace
625,Amritsar,IN,93.02,haze,31.6331,74.8656,OYO 27893 Sita Niwas Parking
628,Saldanha,ZA,58.19,clear sky,-33.0117,17.9442,Blue Bay Lodge
629,Ovalle,CL,62.6,overcast clouds,-30.5983,-71.2003,Hotel Altos de Tuqui
630,Meiganga,CM,66.51,light rain,6.5167,14.3,DFR HOUSE
632,Oussouye,SN,81.66,broken clouds,12.485,-16.5469,Auberge du Routard
633,Huarmey,PE,69.6,broken clouds,-10.0681,-78.1522,Hotel Miramar
634,Orchard Homes,US,73.6,broken clouds,46.8633,-114.0484,Broadway Inn Missoula
635,Urengoy,RU,32.43,overcast clouds,65.9667,78.3667,Gostinnitsa Medveditsa
636,Auki,SB,77.67,scattered clouds,-8.7676,160.7034,Auki Motel
637,Bahir Dar,ET,71.46,light rain,11.5936,37.3908,"Delano Hotel, Bahir Dar"
638,Kropotkin,RU,71.28,clear sky,45.4375,40.5756,Hotel Europe Kropotkin
639,Yanam,IN,83.21,clear sky,16.7333,82.2167,The Regency Hotel
640,Lata,PT,62.65,light rain,40.1629,-8.3327,Casa Maquia
641,Remetea,RO,58.53,overcast clouds,46.7833,25.45,Helló Vendégház
642,Houma,US,90.01,scattered clouds,29.5958,-90.7195,Courtyard by Marriott Houma
643,San Cristobal,VE,87.26,broken clouds,7.7669,-72.225,Pirineos
644,Peniche,PT,68.56,clear sky,39.3558,-9.3811,Hotel Star inn Peniche
645,Sumbe,AO,72.32,overcast clouds,-11.2061,13.8437,Hotel Ritz Sumbe
646,Baindur,IN,81.55,broken clouds,13.8667,74.6333,Sai Vishram Beach Resort (Pure Veg and No Alcohol)
647,Eyemouth,GB,54.12,overcast clouds,55.8713,-2.0901,Redhall Cottage
648,Grand Baie,MU,73.87,clear sky,-20.0182,57.5802,Trou aux Biches Beachcomber Golf Resort & Spa
649,Upata,VE,83.19,overcast clouds,8.0086,-62.3989,Posada Villa Nela
650,Gobabis,,51.55,clear sky,-22.45,18.9667,Goba Lodge
651,Yoichi,JP,51.78,scattered clouds,43.2039,140.7703,Marumatta Farm 21
652,Belyy Yar,RU,47.86,clear sky,53.6039,91.3903,Pasportnyy Stol
653,Tual,ID,83.71,few clouds,-5.6667,132.75,Grand Vilia Hotel
654,Inta,RU,37.35,clear sky,66.0317,60.1659,Apartments in Inta city
655,Alora,ES,80.49,broken clouds,36.8236,-4.7058,Apartments Vientos de Santa María
656,Zaysan,KZ,48.42,clear sky,47.4667,84.8667,Ерлан үй
657,Parlakimidi,IN,82.89,scattered clouds,18.7667,84.0833,APEPDCL
659,Eyl,SO,79.21,overcast clouds,7.9803,49.8164,Amiin Hotel
660,Ushtobe,KZ,61.45,overcast clouds,45.2514,77.9838,Filipin Squad
661,Aktash,RU,26.92,few clouds,50.3,87.7333,Yolki Zelonyye
662,Yar-Sale,RU,30.72,overcast clouds,66.8333,70.8333,Yalemd
663,Casablanca,MA,73.62,clear sky,33.5928,-7.6192,فندق البيت المغربي كازبلانكا
664,Dezhou,CN,76.46,overcast clouds,37.4486,116.2925,Zhongtai International Hotel
665,Lebanon,US,86.16,broken clouds,36.2081,-86.2911,Hampton Inn & Suites Lebanon
666,Shemonaikha,KZ,52.79,overcast clouds,50.6328,81.9056,Perekrestok
667,Balikpapan,ID,76.39,overcast clouds,-1.2675,116.8289,Swiss-Belhotel Balikpapan
668,Batemans Bay,AU,46.09,overcast clouds,-35.7167,150.1833,Batemans Bay Marina Resort
669,Mount Gambier,AU,46.8,overcast clouds,-37.8333,140.7667,The Commodore
670,Helong,CN,47.86,overcast clouds,42.5397,128.9972,Helong Hotel
671,Nenjiang,CN,50.29,scattered clouds,49.1833,125.2167,Nenjiang Apartment
673,George,ZA,54.12,broken clouds,-33.963,22.4617,Protea Hotel by Marriott George King George
674,Jinchang,CN,62.37,moderate rain,38.4953,102.1739,Mingshihui Jinchang International Hotel
675,Nsanje,MW,61.88,scattered clouds,-16.92,35.262,Nsanje Discovery Lodge
676,Parkes,AU,44.35,overcast clouds,-33.1333,148.1833,Station Motel
677,Bardiyah,LY,73.56,clear sky,31.7561,25.0865,بورتو بردية
678,Yatou,CN,65.91,broken clouds,37.15,122.3833,GreenTree Hotel Rongcheng Bus Station
679,Tiszabo,HU,75.24,few clouds,47.3,20.4833,Nagy Vendégházak
680,Alta Gracia,AR,59.88,few clouds,-31.6529,-64.4283,Hotel Ritz
681,Kita,ML,95.25,overcast clouds,13.0349,-9.4895,Hôtel Chat Rouge
682,Vitim,RU,52.81,overcast clouds,59.4511,112.5578,Gostinitsa V Apteke
683,Vangaindrano,MG,67.39,light rain,-23.35,47.6,Hotel Fanilo
684,Palmeira,BR,55.6,overcast clouds,-25.4294,-50.0064,Hotel Vereda
685,Karratha,AU,63.75,clear sky,-20.7377,116.8463,ibis Styles Karratha
686,Kamina,CD,64.35,overcast clouds,-8.7386,24.9906,Guest House Florvia
688,Lircay,PE,54.97,broken clouds,-12.9896,-74.7205,Recreo Hospedaje correito
689,Coari,BR,81.68,overcast clouds,-4.085,-63.1414,Dellrey Hotel Center
690,Nakamura,JP,60.64,clear sky,32.9833,132.9333,Hotel Crown Hills Nakamura
691,Phangnga,TH,80.64,broken clouds,8.4509,98.5298,Sunimit Mansion
692,Kaeo,NZ,55.33,scattered clouds,-35.1,173.7833,Bushido Lodge
693,Maniitsoq,GL,41.74,clear sky,65.4167,-52.9,Hotel Heilmann Lyberth
695,Dubai,AE,85.21,clear sky,25.2582,55.3047,"Radisson Blu Hotel, Dubai Deira Creek"
697,Boden,SE,53.6,moderate rain,65.8252,21.6886,Quality Hotel Bodensia
699,Royan,FR,70.83,clear sky,45.6285,-1.0281,CERISE Royan - Le Grand Hôtel de la Plage
700,Vada,NL,63.34,overcast clouds,51.97,5.6667,Fletcher Hotel-Restaurant De Wageningsche Berg
702,Sitka,US,64.56,overcast clouds,57.0531,-135.33,Westmark Sitka
703,Simao,CN,63.64,overcast clouds,22.7886,100.9748,Changyu Hotel
704,Spruce Grove,CA,68.97,clear sky,53.5334,-113.9187,Travelodge by Wyndham Stony Plain
705,Honningsvag,NO,55.15,few clouds,70.9821,25.9704,Nordkapp Vandrerhjem
706,Vizinga,RU,58.87,scattered clouds,61.0749,50.1031,"Gostinitsa ""Nadezhda"""
707,Zemio,CF,72.41,light rain,5.0314,25.1361,OCHA Office
708,Mountrath,IE,54.45,overcast clouds,52.9989,-7.4728,Conlan House
709,Bandikui,IN,97.75,broken clouds,27.05,76.5667,Mudgal's Paradise (Ravi Mudgal)
710,Bud,US,76.98,overcast clouds,39.447,-86.1758,Ted McQuinn Trust
712,Tete,MZ,67.15,few clouds,-16.1564,33.5867,Zambeze Paraíso Misterioso
713,Aksaray,TR,71.58,clear sky,38.3726,34.0254,Kuzucular Park Hotel
714,Yambio,SS,68.59,broken clouds,4.5721,28.3955,Naivasha Hotel
715,Mingaora,PK,71.78,clear sky,34.7758,72.3625,Burj Al Swat
716,Muniz Freire,BR,78.85,clear sky,-20.4642,-41.4131,Hotel Almeida
